City,Cloudiness,Country,Date,Humidity,Lat,Long,Max Temp,Wind Speed
Hermanus,0,ZA,1538258190,69,-34.42,19.24,282.678,1.67
Lorengau,0,PG,1538258188,100,-2.02,147.27,301.628,4.87
Norman Wells,20,CA,1538254800,60,65.28,-126.83,277.15,5.1
Lompoc,1,US,1538256900,53,34.64,-120.46,295.95,1.5
Atuona,56,PF,1538258206,100,-9.8,-139.03,299.328,4.87
Hami,8,CN,1538258192,53,42.84,93.51,283.328,3.22
Sinjai,0,ID,1538258829,100,-5.12,120.25,295.328,2.07
Geraldton,90,CA,1538254800,55,49.72,-86.95,275.15,4.1
Rikitea,32,PF,1538258180,100,-23.12,-134.97,295.778,5.67
Jamestown,0,AU,1538258112,76,-33.21,138.6,275.578,3.22
Agirish,32,RU,1538258829,79,61.92,63.02,278.128,3.62
Cidreira,0,BR,1538258187,76,-30.17,-50.22,297.478,6.97
Nikolskoye,0,RU,1538254800,75,59.7,30.79,278.15,5.0
Shimoda,92,JP,1538258512,100,34.7,138.93,294.728,5.92
Port Elizabeth,1,US,1538254560,46,39.31,-74.98,298.75,3.1
Schermbeck,0,DE,1538257800,86,51.69,6.87,279.15,0.5
Ushuaia,75,AR,1538254800,86,-54.81,-68.31,274.15,6.2
Strezhevoy,75,RU,1538254800,93,60.73,77.6,281.15,6.0
Ayan,48,TR,1538258197,71,40.67,33.6,287.128,1.22
Cape Town,0,ZA,1538254800,72,-33.93,18.42,289.15,3.1
Kruisfontein,0,ZA,1538258216,79,-34.0,24.73,289.978,8.27
Bambous Virieux,40,MU,1538254800,73,-20.34,57.76,295.15,6.7
Busselton,20,AU,1538258182,100,-33.64,115.35,286.328,8.07
Ribeira Grande,20,PT,1538254800,68,38.52,-28.7,293.15,2.6
Saint Pete Beach,90,US,1538256900,49,27.73,-82.74,307.15,4.1
Leningradskiy,64,RU,1538258187,85,69.38,178.42,279.728,8.82
Tuatapere,8,NZ,1538258177,100,-46.13,167.69,281.878,2.52
East London,20,ZA,1538258192,100,-33.02,27.91,291.628,8.27
Grand Gaube,40,MU,1538254800,73,-20.01,57.66,295.15,6.7
Victoria,75,BN,1538256600,94,5.28,115.24,299.15,3.52
Butaritari,48,KI,1538258188,100,3.07,172.79,302.628,1.57
Saint George,90,GR,1538254200,93,39.45,22.34,287.15,6.7
Alice Springs,0,AU,1538256600,36,-23.7,133.88,289.15,5.7
Guerrero Negro,0,MX,1538258194,46,27.97,-114.04,304.328,3.42
Hithadhoo,68,MV,1538258194,100,-0.6,73.08,300.578,5.57
Abhar,8,IR,1538258830,77,36.14,49.22,280.678,1.07
Erie,1,US,1538258160,49,42.13,-80.09,288.15,3.6
Albany,20,US,1538254440,43,42.65,-73.75,292.05,5.1
Karratha,80,AU,1538258512,78,-20.74,116.85,290.278,5.12
High Level,75,CA,1538254800,51,58.52,-117.13,276.15,4.6
Rio Gallegos,75,AR,1538254800,48,-51.62,-69.22,280.15,4.6
Hobart,20,AU,1538256600,54,-42.88,147.33,285.15,7.2
Sisimiut,80,GL,1538257965,83,66.94,-53.67,273.128,1.22
Mataura,64,NZ,1538258180,100,-46.19,168.86,282.178,1.92
General Roca,75,AR,1538254800,42,-39.03,-67.58,292.15,9.8
Acapulco,40,MX,1538254200,70,16.86,-99.88,304.15,3.22
Hilo,20,US,1538254560,74,19.71,-155.08,302.55,4.1
Punta Arenas,90,CL,1538254800,80,-53.16,-70.91,277.15,2.6
Mount Gambier,32,AU,1538258245,88,-37.83,140.78,279.128,1.37
Georgetown,20,GY,1538254800,70,6.8,-58.16,302.15,5.1
Beringovskiy,92,RU,1538258225,94,63.05,179.32,282.628,9.42
Kapaa,90,US,1538256000,90,22.08,-159.32,302.05,8.2
Verkhoyansk,48,RU,1538258804,91,67.55,133.39,269.628,2.37
Adrar,0,DZ,1538254800,26,27.87,-0.29,300.15,4.6
Avarua,75,CK,1538254800,64,-21.21,-159.78,296.15,2.6
Los Llanos de Aridane,44,ES,1538256600,83,28.66,-17.92,296.15,6.2
Morant Bay,20,JM,1538254800,70,17.88,-76.41,303.15,2.1
Sailana,0,IN,1538258832,77,23.46,74.92,292.678,1.22
Banjar,64,ID,1538258832,94,-7.37,108.54,292.528,1.22
Rundu,68,NA,1538258832,19,-17.91,19.77,302.828,4.87
New Norfolk,20,AU,1538256600,54,-42.78,147.06,285.15,7.2
Oda,75,JP,1538256600,93,35.19,132.5,292.15,6.2
Bilibino,88,RU,1538258244,97,68.06,166.44,276.478,1.87
Esperance,20,TT,1538254800,79,10.24,-61.45,302.15,4.6
Zaysan,0,KZ,1538258833,71,47.47,84.87,274.728,0.77
Mineiros,56,BR,1538258833,77,-17.57,-52.55,296.728,2.97
Mahebourg,40,MU,1538254800,73,-20.41,57.7,295.15,6.7
Faanui,44,PF,1538258190,100,-16.48,-151.75,298.078,3.22
Padang,92,ID,1538258186,100,-0.92,100.36,297.928,0.67
High Rock,75,BS,1538256840,74,26.63,-78.28,302.15,3.6
Menzelinsk,40,RU,1538256600,70,55.73,53.11,280.15,2.0
Puerto Ayora,20,EC,1538254800,65,-0.74,-90.35,300.15,8.7
Ancud,92,CL,1538258202,100,-41.87,-73.83,278.428,5.47
Salalah,40,OM,1538254200,74,17.01,54.1,299.15,1.5
Hobyo,80,SO,1538258509,91,5.35,48.53,298.128,5.42
Praya,20,ID,1538256600,88,-8.71,116.27,296.15,2.87
Yabelo,0,ET,1538258834,93,4.89,38.09,288.578,1.52
Yellowknife,75,CA,1538254800,64,62.45,-114.38,274.15,5.7
Ziarat,0,PK,1538258834,62,30.38,67.73,276.428,1.17
Kavieng,12,PG,1538258254,100,-2.57,150.8,302.028,2.77
Ossora,36,RU,1538258835,100,59.24,163.07,277.328,1.97
Tuktoyaktuk,75,CA,1538255460,86,69.44,-133.03,271.15,2.6
Hereford,0,GB,1538258699,89,52.06,-2.72,278.178,2.57
Jovellar,80,PH,1538258835,97,13.07,123.6,298.828,1.82
Kodiak,90,US,1538254380,80,39.95,-94.76,289.25,2.1
Port Alfred,0,ZA,1538258198,87,-33.59,26.89,290.778,7.62
Praia da Vitoria,20,PT,1538254800,77,38.73,-27.07,294.15,9.07
Ilulissat,40,GL,1538254200,50,69.22,-51.1,274.15,6.2
Dashitou,88,CN,1538258835,94,43.3,128.5,281.328,1.77
Mwene-Ditu,8,CD,1538258836,93,-7.01,23.45,293.778,1.17
Arman,20,RU,1538256600,89,59.7,150.17,276.15,1.0
Port-Gentil,75,GA,1538254800,94,-0.72,8.78,299.15,4.1
Lagoa,0,PT,1538256600,73,37.14,-8.45,296.15,2.6
Tiksi,80,RU,1538258214,97,71.64,128.87,272.578,2.12
Nola,44,CF,1538258836,98,3.52,16.05,293.928,1.07
Avera,1,US,1538256900,79,33.19,-82.53,301.15,1.62
Byron Bay,90,AU,1538256600,72,-28.65,153.62,291.15,5.7
Coquimbo,0,CL,1538254800,82,-29.95,-71.34,288.15,7.2
Klaeng,88,TH,1538258837,100,12.78,101.65,298.178,2.52
Aksarka,92,RU,1538258263,95,66.56,67.8,277.978,6.07
Elat,20,CM,1538258837,98,2.91,11.16,293.778,1.07
Pevek,76,RU,1538258184,90,69.7,170.27,280.228,5.52
Bredasdorp,0,ZA,1538254800,77,-34.53,20.04,289.15,4.6
Talnakh,92,RU,1538258215,85,69.49,88.39,279.428,9.17
Mahajanga,0,MG,1538254800,78,-15.72,46.32,298.15,3.1
Male,8,UA,1538258837,95,50.74,33.7,278.978,3.47
Aklavik,20,CA,1538254800,100,68.22,-135.01,274.15,1.5
Vallenar,56,CL,1538258618,62,-28.58,-70.76,292.178,1.17
Talcahuano,90,CL,1538255760,87,-36.72,-73.12,285.15,5.1
Baykit,92,RU,1538258204,93,61.68,96.39,277.678,3.12
Kachiry,0,KZ,1538258838,55,53.07,76.1,281.578,4.62
Inirida,24,CO,1538258838,81,3.87,-67.92,301.428,0.87
Barsovo,75,RU,1538256600,100,61.17,73.17,279.15,9.0
Ahipara,0,NZ,1538258184,81,-35.17,173.16,286.778,2.77
Vaini,20,IN,1538258207,94,15.34,74.49,293.928,0.97
Bonthe,76,SL,1538258838,90,7.53,-12.5,298.828,2.42
Itoman,75,JP,1538258160,83,26.12,127.67,299.15,10.3
Narsaq,75,GL,1538254200,51,60.91,-46.05,276.15,1.5
Uglegorsk,12,RU,1538258839,81,49.08,142.06,278.328,1.82
Honiara,40,SB,1538256600,74,-9.43,159.96,302.15,1.5
Cherskiy,88,RU,1538258248,92,68.75,161.3,275.028,3.32
Provideniya,92,RU,1538258183,89,64.42,-173.23,282.478,12.22
Gap,0,FR,1538258839,83,44.56,6.08,281.228,0.97
Freeport,75,BS,1538256840,74,26.54,-78.7,302.15,3.6
Talas,75,TR,1538256000,52,38.69,35.55,291.15,0.5
Camopi,0,GF,1538258235,31,3.17,-52.33,307.428,2.37
Bluff,0,AU,1538258189,80,-23.58,149.07,290.578,2.52
North Bend,90,US,1538258160,64,43.41,-124.22,290.95,6.2
Iraray,8,PH,1538258839,100,8.99,118.05,299.328,2.22
Chokurdakh,88,RU,1538258197,96,70.62,147.9,271.278,6.17
Tual,0,ID,1538258557,100,-5.67,132.75,299.828,6.92
Broome,0,GB,1538256000,87,52.47,1.45,282.15,2.6
Kayseri,75,TR,1538256000,52,38.73,35.48,291.15,0.5
Bom Jesus,68,BR,1538258840,22,-9.08,-44.36,309.128,2.62
Booue,64,GA,1538258840,88,-0.09,11.94,298.028,1.67
Barrow,12,AR,1538258179,96,-38.31,-60.23,286.778,3.87
Corralillo,64,CU,1538258841,73,22.98,-80.59,303.528,6.82
Omboue,92,GA,1538258841,100,-1.57,9.26,298.728,3.42
Puerto del Rosario,40,ES,1538256600,78,28.5,-13.86,297.15,4.6
Meulaboh,92,ID,1538258554,100,4.14,96.13,297.678,1.42
Cabedelo,40,BR,1538254800,78,-6.97,-34.84,299.15,5.7
Fomboni,0,KM,1538258841,100,-12.28,43.74,298.978,2.92
Aktau,0,KZ,1538256600,67,43.65,51.16,289.15,3.0
Tasiilaq,20,GL,1538254200,51,65.61,-37.64,275.15,1.0
Muravlenko,92,RU,1538258841,96,63.79,74.5,279.028,2.67
Qaanaaq,32,GL,1538258190,100,77.48,-69.36,264.828,1.72
Mitsamiouli,0,KM,1538258505,100,-11.38,43.28,297.228,2.17
Gao,44,ML,1538258799,43,16.28,-0.04,303.028,2.37
Hamilton,20,BM,1538254500,78,32.3,-64.78,301.15,6.7
Gazojak,0,TM,1538258203,57,41.19,61.4,288.578,3.92
Poum,0,MK,1538258232,67,41.28,20.71,281.778,1.02
Hinton,48,CA,1538258842,63,53.4,-117.57,272.628,1.37
Srednekolymsk,92,RU,1538258513,90,67.46,153.71,274.278,3.77
Severo-Kurilsk,0,RU,1538258204,100,50.68,156.12,281.928,3.67
Umm Kaddadah,0,SD,1538258258,38,13.6,26.69,299.928,3.47
Vestmannaeyjar,36,IS,1538258239,99,63.44,-20.27,278.328,10.37
Zhigansk,0,RU,1538258494,100,66.77,123.37,272.028,2.22
Khorramshahr,0,IR,1538254800,30,30.43,48.18,302.15,3.1
Ixtlahuacan del Rio,90,MX,1538256240,56,20.87,-103.25,296.15,3.1
Kitimat,20,CA,1538254800,23,54.02,-128.69,289.15,5.1
Mizan Teferi,48,ET,1538258843,88,6.99,35.58,289.428,1.22
Kaitangata,92,NZ,1538258196,100,-46.28,169.85,281.928,1.97
Chalmette,90,US,1538257860,77,29.94,-89.96,302.05,5.7
Rincon,75,US,1538258160,87,32.3,-81.24,302.85,3.1
Khudumelapye,24,BW,1538258843,46,-23.91,24.95,294.628,8.37
Lasa,20,CY,1538256600,57,34.92,32.53,299.15,3.1
Thompson,75,CA,1538254800,86,55.74,-97.86,274.15,3.6
Longyearbyen,20,NO,1538256000,79,78.22,15.63,267.15,4.1
Cocobeach,40,GA,1538254800,88,1.01,9.58,300.15,3.1
Taltal,0,CL,1538258844,67,-25.41,-70.49,293.428,1.52
Vyazma,0,RU,1538258629,82,55.21,34.3,271.178,1.22
Goksun,0,TR,1538254200,61,38.02,36.5,298.15,7.7
Plock,0,PL,1538258844,81,52.55,19.71,278.428,3.37
Montepuez,0,MZ,1538258844,72,-13.13,39.0,294.778,3.57
Barcarena,40,BR,1538254800,70,-1.51,-48.62,302.15,3.6
Alofi,12,NU,1538254800,65,-19.06,-169.92,299.15,6.7
Isangel,100,VU,1538258199,100,-19.55,169.27,295.278,9.62
Taoudenni,24,ML,1538258229,26,22.68,-3.98,299.578,1.92
Carnarvon,0,ZA,1538258199,15,-30.97,22.13,280.778,3.12
Katsuura,90,JP,1538256000,94,33.93,134.5,294.15,2.6
Ewa Beach,1,US,1538254620,59,21.32,-158.01,304.85,3.1
Saskylakh,80,RU,1538258191,99,71.97,114.09,273.128,5.37
Ambilobe,0,MG,1538258182,71,-13.19,49.05,294.678,5.12
Atar,64,MR,1538258221,59,20.52,-13.05,298.528,2.97
Yulara,44,AU,1538254800,32,-25.24,130.99,292.15,7.7
Namatanai,0,PG,1538258818,100,-3.66,152.44,300.978,6.22
Zambezi,12,ZM,1538258845,29,-13.55,23.12,296.978,5.37
Klaksvik,68,FO,1538256000,87,62.23,-6.59,280.15,10.3
Kyabram,0,AU,1538258846,84,-36.31,145.05,277.678,1.32
Sao Filipe,76,CV,1538258242,95,14.9,-24.5,299.128,4.02
Cayenne,0,GF,1538256600,78,4.94,-52.33,301.15,4.1
Bethel,75,US,1538254380,66,60.79,-161.76,287.05,6.2
Takoradi,0,GH,1538258846,99,4.89,-1.75,298.178,3.67
Luwuk,44,ID,1538258846,100,-0.95,122.79,296.828,2.07
Riyadh,0,SA,1538254800,12,24.63,46.72,300.15,2.1
Quelimane,0,MZ,1538258846,88,-17.88,36.89,297.428,4.37
Mareeba,20,AU,1538256600,64,-16.99,145.42,296.15,5.7
Caravelas,8,BR,1538258531,100,-17.73,-39.27,298.328,4.12
Khatanga,44,RU,1538258179,89,71.98,102.47,277.278,4.02
San Carlos de Bariloche,75,AR,1538254800,80,-41.13,-71.31,277.15,10.8
Road Town,75,VG,1538254800,83,18.42,-64.62,302.05,5.7
College,1,US,1538254680,8,64.86,-147.8,287.75,4.6
Dikson,76,RU,1538258186,79,73.51,80.55,279.728,10.57
Quatre Cocos,40,MU,1538254800,73,-20.21,57.76,295.15,6.7
Sur,0,OM,1538258223,95,22.57,59.53,301.378,3.02
Shitanjing,36,CN,1538258847,65,39.23,106.34,272.278,0.87
Ouallam,56,NE,1538258847,54,14.32,2.08,301.978,2.37
Cabo San Lucas,40,MX,1538253840,74,22.89,-109.91,302.15,4.6
Monrovia,88,LR,1538258847,93,6.33,-10.8,297.928,3.17
Bilma,56,NE,1538258781,22,18.69,12.92,302.478,2.22
Kamaishi,100,JP,1538258536,98,39.28,141.86,290.178,4.37
Nanortalik,80,GL,1538258190,94,60.14,-45.24,276.278,3.12
Comodoro Rivadavia,75,AR,1538256000,71,-45.87,-67.48,287.15,11.3
Cape Canaveral,20,US,1538254560,63,28.41,-80.6,306.15,4.1
Bud,92,NO,1538257800,76,62.91,6.91,283.15,13.4
Hasaki,75,JP,1538255700,93,35.73,140.83,292.15,3.6
Yoichi,68,JP,1538258848,100,43.19,140.77,284.528,1.97
Santa Cruz de Tenerife,75,ES,1538256600,88,28.47,-16.25,297.15,4.6
Broken Hill,0,AU,1538258226,80,-31.97,141.45,277.778,3.42
Kushima,90,JP,1538257800,94,31.5,131.29,299.15,19.0
Bartica,20,GY,1538254800,70,6.41,-58.62,302.15,5.1
Aguada de Pasajeros,56,CU,1538254740,88,22.38,-80.85,300.15,3.1
Boca do Acre,12,BR,1538258849,59,-8.76,-67.39,306.878,1.42
Lady Frere,0,ZA,1538258849,79,-31.7,27.23,278.928,1.17
Hvide Sande,92,DK,1538257800,66,56.01,8.13,286.15,7.7
Sao Felix do Xingu,20,BR,1538258414,82,-6.64,-51.99,301.278,0.92
Tanabe,92,JP,1538258849,97,33.73,135.39,294.878,3.42
Sitka,0,US,1538258190,60,37.17,-99.65,297.578,6.82
Saint-Philippe,75,CA,1538255700,62,45.36,-73.48,289.05,5.7
Pisco,0,PE,1538254800,30,-13.71,-76.2,295.15,7.7
Fare,0,PF,1538258540,100,-16.7,-151.02,297.828,3.12
Eureka,90,US,1538256900,63,40.8,-124.16,292.15,5.7
Torbay,90,CA,1538257200,93,47.66,-52.73,291.15,4.6
Alindao,32,CF,1538258850,93,5.04,21.21,295.078,1.92
Ciudad Bolivar,0,VE,1538258515,52,8.12,-63.55,306.778,4.92
Mar del Plata,44,AR,1538257974,52,-46.43,-67.52,284.228,6.17
Sistranda,75,NO,1538257800,87,63.73,8.83,281.15,9.3
Upernavik,48,GL,1538258191,100,72.79,-56.15,274.928,7.82
Pyapon,88,MM,1538258850,99,16.29,95.68,299.528,0.87
San Remigio,92,PH,1538258850,100,10.83,122.09,298.128,2.82
Solnechnyy,24,RU,1538258180,80,50.72,136.64,278.578,2.52
Waimana,0,NZ,1538258850,68,-38.14,177.08,283.478,1.07
Deer Lake,75,CA,1538254800,87,49.18,-57.43,284.15,3.1
Sovetskoye,12,UA,1538258851,83,45.57,34.49,281.278,1.22
Shenkursk,0,RU,1538258851,89,62.11,42.91,273.828,2.52
Linares,92,CL,1538258851,80,-35.85,-71.6,282.178,3.07
Smithers,20,CA,1538254800,25,54.78,-127.17,284.15,5.1
Oranjemund,0,ZA,1538258182,78,-28.55,16.43,290.078,10.77
Olyka,0,UA,1538258851,84,50.73,25.81,275.778,1.27
San Andres,20,PH,1538257931,100,13.32,122.68,300.928,4.32
Hualmay,8,PE,1538258852,64,-11.1,-77.61,293.828,2.57
Komsomolskiy,92,RU,1538258266,98,67.55,63.78,275.428,7.47
Margate,20,AU,1538256600,54,-43.03,147.26,285.15,7.2
Tucurui,32,BR,1538258555,63,-3.77,-49.67,303.428,1.22
Aliwal North,0,ZA,1538258852,82,-30.69,26.71,277.178,1.47
Arraial do Cabo,75,BR,1538254800,78,-22.97,-42.02,297.15,4.6
Piacabucu,48,BR,1538258852,74,-10.41,-36.43,299.028,5.22
Ust-Koksa,0,RU,1538258852,80,50.27,85.62,269.728,0.77
Kununurra,0,AU,1538256600,88,-15.77,128.74,294.15,0.5
Erzin,40,TR,1538256000,83,36.95,36.2,298.15,2.1
Nouakchott,0,MR,1538258853,98,18.08,-15.98,299.778,4.12
Dolores,64,AR,1538258853,95,-36.31,-57.68,288.478,9.27
Altay,0,CN,1538258853,71,47.83,88.13,270.678,1.37
Rocha,92,UY,1538258211,100,-34.48,-54.34,292.278,4.67
Doba,44,TD,1538258853,78,8.66,16.85,299.028,1.17
Duluth,90,US,1538256900,11,46.77,-92.13,279.35,3.1
Hailey,5,US,1538254200,30,43.52,-114.32,294.15,4.6
Iralaya,76,HN,1538258803,81,15.0,-83.23,302.428,3.72
Gorontalo,0,ID,1538258854,90,0.54,123.06,296.278,1.42
Buluang,40,PH,1538254800,83,10.47,123.98,299.15,1.5
Port Lincoln,24,AU,1538258260,100,-34.72,135.86,284.228,6.32
Kameshkovo,0,RU,1538258854,89,56.35,41.0,275.678,3.77
Serta,0,IT,1538256000,59,46.01,10.15,291.15,2.6
Balabac,80,PH,1538258854,99,7.99,117.06,302.028,4.72
Gibsons,90,CA,1538254800,87,49.4,-123.51,291.15,3.6
Antofagasta,40,CL,1538254800,72,-23.65,-70.4,289.15,6.2
Okhotsk,20,RU,1538258209,97,59.36,143.24,276.778,5.97
Port Said,68,EG,1538258855,27,25.34,30.55,304.328,3.82
Ola,20,RU,1538256600,100,59.58,151.3,276.15,1.0
Salihli,36,TR,1538258855,66,38.48,28.15,289.178,1.22
Adilabad,0,IN,1538258855,85,19.68,78.53,296.678,0.37
Burnie,36,AU,1538258855,100,-41.05,145.91,284.228,6.92
Boa Vista,8,BR,1538258050,53,2.82,-60.67,306.528,3.17
Pahrump,1,US,1538257980,12,36.21,-115.98,308.75,8.2
Rota,0,ES,1538258400,73,36.62,-6.36,295.15,2.1
Kiama,0,AU,1538254800,66,-34.67,150.86,282.15,3.6
Gornopravdinsk,92,RU,1538258856,89,60.06,69.92,279.178,5.92
Vao,92,EE,1538258436,83,59.1,26.19,278.628,5.12
Xichang,100,CN,1538258196,100,27.88,102.25,285.078,0.77
Port Moresby,8,PG,1538258227,95,-9.47,147.16,298.128,6.97
Kholodnyy,80,RU,1538258856,78,62.72,147.95,268.178,6.07
Buchanan,92,LR,1538258262,100,5.88,-10.05,298.328,3.17
Lowestoft,0,GB,1538257800,87,52.48,1.75,282.15,2.6
San Patricio,20,PY,1538258182,54,-26.98,-56.83,304.128,3.87
Sola,0,FI,1538257800,80,62.78,29.36,278.15,4.1
Lincoln,90,US,1538258040,92,40.8,-96.67,284.05,3.1
Puksoozero,12,RU,1538258763,86,62.59,40.61,271.528,3.27
Grand-Lahou,20,CI,1538258857,89,5.24,-5.0,297.578,2.92
Ponta do Sol,88,BR,1538258214,55,-20.63,-46.0,298.528,3.07
Odienne,8,CI,1538258857,97,9.51,-7.57,294.278,1.92
Ust-Nera,88,RU,1538258244,83,64.57,143.24,267.378,2.12
Pacific Grove,1,US,1538256900,49,36.62,-121.92,296.15,7.7
Evensk,92,RU,1538258247,100,61.92,159.24,277.528,5.77
Chapais,90,CA,1538257500,80,49.78,-74.86,278.15,3.1
Sao Joao da Barra,90,BR,1538254800,83,-21.64,-41.05,297.15,3.12
Xining,92,CN,1538258517,77,36.62,101.77,274.428,1.07
Airai,0,TL,1538258185,83,-8.93,125.41,287.928,0.87
Corinto,80,BR,1538258857,40,-18.36,-44.46,302.878,3.97
Morondava,0,MG,1538258799,98,-20.3,44.28,296.378,2.77
Manutuke,0,NZ,1538258858,84,-38.68,177.91,284.828,2.47
Pascagoula,20,US,1538257980,65,30.37,-88.56,304.25,1.5
Wakkanai,8,JP,1538258858,100,45.41,141.67,290.428,7.57
Tautira,40,PF,1538256600,61,-17.73,-149.15,301.15,4.6
Chuy,64,UY,1538258200,100,-33.69,-53.46,293.828,5.42
Cabra,0,ES,1538258400,68,37.47,-4.43,295.15,1.0
Vrangel,0,RU,1538258858,100,42.73,133.08,289.028,3.32
Luderitz,0,NA,1538258210,66,-26.65,15.16,290.278,3.42
Castro,92,CL,1538258188,100,-42.48,-73.76,276.978,4.97
Laguna,75,MX,1538253600,49,27.52,-110.01,307.15,1.0
Fairbanks,1,US,1538254680,8,64.84,-147.72,287.75,4.6
Belyye Berega,0,RU,1538258859,91,53.21,34.66,275.278,2.87
Atherton,40,GB,1538257800,93,53.52,-2.49,283.15,1.5
Haines Junction,0,CA,1538258501,50,60.75,-137.51,279.528,1.22
Ljungby,92,SE,1538257800,76,56.83,13.94,283.15,6.7
Kurilsk,48,RU,1538258859,100,45.23,147.88,286.128,4.02
Pringsewu,36,ID,1538258859,90,-5.36,104.98,294.828,1.47
Qandala,0,SO,1538258860,100,11.47,49.87,292.028,0.62
Baracoa,68,CU,1538258860,93,20.35,-74.5,301.828,5.72
Ust-Ishim,0,RU,1538258564,79,57.69,71.17,281.928,6.02
Mukhen,20,RU,1538258860,89,48.19,136.14,278.928,1.92
Dali,92,CN,1538258537,100,25.6,100.24,286.528,0.17
Anloga,20,GH,1538254800,88,5.79,0.9,299.15,4.6
Presidencia Roque Saenz Pena,76,AR,1538258860,61,-26.79,-60.44,304.578,5.62
Serafimovich,64,RU,1538258861,89,49.58,42.73,283.228,3.42
Matara,64,PE,1538258861,22,-13.74,-72.9,292.178,1.17
Jasper,1,US,1538256900,48,33.83,-87.28,304.15,1.52
Nicoya,40,CR,1538254800,55,10.15,-85.45,305.15,2.6
Sassandra,88,CI,1538258861,99,4.95,-6.09,298.528,5.67
Hambantota,88,LK,1538258232,100,6.12,81.12,297.628,3.02
Bollnas,24,SE,1538258260,74,61.35,16.39,281.128,5.07
Atbasar,0,KZ,1538258508,65,51.81,68.36,279.478,3.92
Ondjiva,36,AO,1538258804,22,-17.07,15.73,300.378,4.82
Nishihara,90,JP,1538256480,93,35.74,139.53,292.15,3.6
Nome,90,US,1538258100,90,30.04,-94.42,298.15,2.1
Abu Samrah,0,SY,1538258862,58,35.3,37.18,293.128,2.52
Provost,48,CA,1538258552,58,52.35,-110.26,277.228,6.92
Sabang,44,PH,1538258259,100,13.72,123.58,298.028,1.72
Balikpapan,92,ID,1538258766,100,-1.24,116.86,300.728,3.67
Faya,0,SA,1538254800,24,18.39,42.45,293.15,3.6
Clyde River,20,CA,1538254800,79,70.47,-68.59,266.15,5.7
Eyl,36,SO,1538258258,94,7.98,49.82,297.328,6.62
Half Moon Bay,75,US,1538254560,61,37.46,-122.43,297.15,8.2
Lavrentiya,100,RU,1538258531,90,65.58,-170.99,281.078,10.42
Abha,0,SA,1538254800,24,18.22,42.5,293.15,3.6
Biak,44,ID,1538258551,100,-0.91,122.88,296.828,2.07
Coihaique,75,CL,1538254800,55,-45.58,-72.07,273.15,1.0
Vanino,0,RU,1538258863,91,53.93,40.55,275.328,3.32
Hay River,75,CA,1538254800,64,60.82,-115.79,276.15,7.2
Lebu,20,ET,1538258220,53,8.96,38.73,284.328,3.12
Ust-Kuyga,88,RU,1538258528,95,70.0,135.55,271.478,1.42
Yerbogachen,0,RU,1538258207,90,61.28,108.01,274.478,2.52
Los Angeles,5,US,1538256480,53,34.05,-118.24,304.85,1.5
Wyndham,0,GB,1538257800,87,51.61,-3.54,285.15,2.6
Jumla,0,NP,1538258510,81,29.28,82.18,274.278,1.22
Vanimo,20,PG,1538258820,100,-2.67,141.3,300.378,5.07
Coromandel,0,NZ,1538256600,62,-36.76,175.5,288.15,3.6
Aripuana,0,BR,1538258808,40,-9.17,-60.63,308.228,1.27
Saldanha,12,PT,1538258201,72,41.42,-6.55,289.678,0.62
Havre-Saint-Pierre,40,CA,1538254800,75,50.23,-63.6,280.15,9.8
Saint-Augustin,0,FR,1538256600,63,44.83,-0.61,289.15,2.6
Ghanzi,32,BW,1538258864,47,-21.7,21.65,295.428,6.27
Trapani,0,IT,1538256000,64,38.02,12.54,293.15,2.1
Hovd,75,NO,1538256000,81,63.83,10.7,281.15,7.7
Punta Alta,0,AR,1538254800,46,-27.46,-55.82,305.15,6.2
Romans-sur-Isere,0,FR,1538256600,87,45.05,5.06,283.15,2.1
Bani,56,PH,1538258865,100,15.89,120.27,296.628,0.72
Divnogorsk,0,RU,1538256600,93,55.96,92.38,276.15,1.62
Caruray,56,PH,1538258514,100,10.31,119.01,299.828,3.42
Twin Falls,1,US,1538254380,28,42.57,-114.46,299.85,3.1
Inhambane,76,MZ,1538258865,91,-23.87,35.38,295.778,10.17
La Asuncion,68,EC,1538258865,57,-1.64,-78.74,288.628,0.77
Waipawa,8,NZ,1538258865,68,-39.94,176.59,285.328,3.02
Meiganga,8,CM,1538258865,90,6.52,14.29,291.428,1.12
Kulu,20,CD,1538258866,92,3.47,23.69,296.928,1.42
Naze,56,NG,1538258233,95,5.43,7.07,297.428,2.67
Kropotkin,24,RU,1538258866,73,45.43,40.58,284.378,2.17
Luocheng,0,CN,1538258866,77,28.29,114.55,285.628,1.17
Collie,44,AU,1538258866,80,-33.36,116.15,283.328,6.07
Svencionys,36,LT,1538258866,75,55.15,26.17,278.828,4.12
Cody,90,US,1538254560,79,44.53,-109.06,278.15,3.1
Tatarsk,0,RU,1538258866,60,55.22,75.96,283.878,7.87
Saquena,0,PE,1538258867,67,-4.67,-73.52,304.178,1.32
Tiznit,36,MA,1538258200,90,29.7,-9.73,294.528,1.42
Formosa,0,AR,1538254800,52,-26.19,-58.17,306.15,7.7
Mount Darwin,100,ZW,1538258867,86,-16.77,31.58,292.128,6.02
Nemuro,36,JP,1538258238,98,43.32,145.57,289.328,4.32
Souillac,0,FR,1538256600,59,45.6,-0.6,289.15,4.6
Lydenburg,80,ZA,1538258576,98,-25.1,30.46,284.628,1.32
Verkhnechusovskiye Gorodki,88,RU,1538258867,85,58.17,57.11,279.528,5.67
Erenhot,92,CN,1538258809,93,43.65,111.97,275.428,7.57
Santa Isabel do Rio Negro,56,BR,1538258192,91,-0.41,-65.02,299.678,3.77
Tari,48,NG,1538258867,67,12.41,4.49,299.878,2.12
Necochea,44,AR,1538258507,98,-38.55,-58.74,285.628,3.67
Salaverry,0,PE,1538254800,77,-8.22,-78.98,292.15,5.7
Ishinomaki,75,JP,1538257620,100,38.42,141.3,290.15,1.5
Lichinga,0,MZ,1538258868,77,-13.3,35.25,288.778,1.57
Plastun,0,RU,1538258868,81,44.76,136.29,275.678,1.02
San Lorenzo,12,HN,1538258869,75,13.43,-87.45,305.178,4.97
Yashkul,0,RU,1538258869,89,46.17,45.34,284.228,1.72
Edinburg,1,US,1538258100,57,26.3,-98.16,304.15,4.1
Muisne,48,EC,1538258869,67,0.61,-80.02,301.178,2.97
Mackay,75,CA,1538254800,44,53.65,-115.58,276.15,4.1
Touros,48,BR,1538257963,83,-5.2,-35.46,299.278,6.62
Iqaluit,90,CA,1538254800,93,63.75,-68.52,275.15,2.1
Mayskiy,0,RU,1538254800,76,43.63,44.06,284.15,3.0
Ostersund,24,SE,1538257800,81,63.18,14.64,279.15,5.1
Marsh Harbour,20,BS,1538258544,98,26.54,-77.06,301.928,8.17
Gizo,0,IL,1538256000,57,31.8,34.94,301.15,1.5
Vardo,20,US,1538255700,46,39.62,-77.74,298.15,1.47
Pozo Colorado,0,PY,1538258548,52,-23.49,-58.8,306.028,9.07
Bombay,90,US,1538257980,55,44.94,-74.57,288.75,5.1
Pont-Sainte-Maxence,0,FR,1538256600,66,49.3,2.6,284.15,4.1
Akureyri,90,IS,1538254800,93,65.68,-18.09,275.15,8.7
Murmashi,75,RU,1538256600,68,68.82,32.82,272.15,2.0
Peresichna,40,UA,1538256600,87,50.02,35.98,282.15,3.0
Dubbo,0,AU,1538256600,71,-32.25,148.6,282.15,6.2
Richards Bay,56,ZA,1538258524,92,-28.77,32.06,290.528,2.07
Mahibadhoo,80,MV,1538258808,99,3.78,72.97,301.778,7.92
Nelson Bay,20,AU,1538256600,66,-32.72,152.14,286.15,3.1
Rawson,12,AR,1538258871,34,-43.3,-65.11,291.678,4.37
Belaya Gora,92,RU,1538258871,92,68.54,146.19,272.628,7.02
Taos,1,US,1538255700,4,36.41,-105.57,298.75,9.8
Brae,92,GB,1538257800,66,60.4,-1.35,283.15,10.8
Kaohsiung,40,TW,1538256600,64,22.62,120.31,300.15,3.6
Northam,0,GB,1538254200,81,51.04,-4.21,283.15,1.0
Cottbus,1,US,1538254380,57,36.65,-91.85,297.05,3.6
Apc,0,HU,1538256600,60,47.8,19.69,283.15,1.5
Zhaozhou,92,CN,1538258872,100,45.71,125.27,284.778,3.67
Sarangarh,12,IN,1538258872,79,21.6,83.08,297.378,1.17
Griffith,0,AU,1538258234,80,-34.29,146.06,278.628,1.92
Pathein,80,MM,1538258872,97,16.78,94.73,298.828,1.32
Champerico,40,MX,1538257440,58,16.38,-93.6,303.15,4.6
Bahce,0,TR,1538254200,61,37.2,36.58,298.15,7.7
Alihe,32,CN,1538258811,85,50.57,123.73,275.128,2.07
Ekimchan,0,RU,1538258873,90,53.07,132.94,272.278,0.97
Sao Jose da Coroa Grande,92,BR,1538258506,87,-8.9,-35.15,298.328,4.47
Peace River,75,CA,1538254800,47,56.23,-117.29,275.15,4.6
Dakoro,24,NE,1538258873,75,14.51,6.76,297.028,2.47
Westport,92,IE,1538258238,99,53.8,-9.52,284.778,6.62
Vila Velha,40,BR,1538258400,78,-3.71,-38.6,300.15,4.1
Merauke,0,ID,1538258873,92,-8.49,140.4,296.528,7.52
Buraydah,0,SA,1538254800,23,26.33,43.97,301.15,1.5
Uyuni,0,BO,1538258874,12,-20.46,-66.82,288.478,3.87
Zapolyarnyy,32,RU,1538257800,69,69.43,30.82,274.15,10.8
Iquitos,40,PE,1538254800,66,-3.75,-73.25,305.15,4.1
Menongue,100,AO,1538258874,23,-14.66,17.68,300.378,2.42
Yar-Sale,88,RU,1538258212,100,66.83,70.83,279.628,8.42
Tarabuco,0,BO,1538258874,41,-19.18,-64.92,294.428,1.32
Kiunga,24,PG,1538258874,91,-6.12,141.3,295.028,1.32
Cam Ranh,56,VN,1538258875,100,11.92,109.15,298.578,1.27
Manono,48,CD,1538258875,85,-7.3,27.4,295.778,2.12
Carson City,1,US,1538258100,14,39.16,-119.77,299.25,5.7
Parakou,32,BJ,1538258875,91,9.34,2.63,297.778,1.87
Turochak,8,RU,1538258875,80,52.26,87.12,274.778,0.17
Kavaratti,32,IN,1538258172,100,10.57,72.64,299.678,3.02
Ashqelon,0,IL,1538256000,57,31.67,34.57,301.15,1.5
Goya,36,AR,1538258875,88,-29.14,-59.27,297.278,2.22
Juneau,1,US,1538254560,6,58.3,-134.42,290.35,7.7
Shalya,20,RU,1538258683,90,57.25,58.73,277.678,2.87
Flinders,0,AU,1538254800,66,-34.58,150.85,282.15,3.6
Sobolevo,0,RU,1538258241,80,54.43,31.9,271.678,1.32
Amapa,40,HN,1538258400,70,15.09,-87.97,303.15,7.2
Havoysund,80,NO,1538256000,69,71.0,24.66,277.15,12.3
Thunder Bay,75,CA,1538254800,48,48.41,-89.26,280.15,3.1
Belmonte,0,PT,1538258536,74,40.36,-7.35,288.928,1.17
Pangnirtung,92,CA,1538258187,98,66.15,-65.72,272.878,3.37
Tagusao,44,PH,1538258813,100,9.19,117.81,298.428,2.22
Mattru,56,SL,1538258527,94,7.62,-11.83,298.178,2.32
Tura,64,IN,1538258510,99,25.52,90.21,295.278,1.32
Leshukonskoye,12,RU,1538258876,94,64.9,45.76,275.528,2.52
Whitianga,0,NZ,1538258789,100,-36.83,175.7,286.878,2.17
Flin Flon,75,CA,1538254800,44,54.77,-101.88,278.15,6.7
Kuhdasht,0,IR,1538258770,55,33.53,47.61,283.428,1.27
Tsabong,0,BW,1538258877,28,-26.02,22.4,293.178,3.02
Upington,24,ZA,1538254800,6,-28.46,21.24,293.15,2.6
Gornji Milanovac,0,RS,1538256600,62,44.02,20.46,285.15,1.5
Armacao de Pera,0,PT,1538256600,73,37.1,-8.36,296.15,2.6
Codrington,92,AU,1538258245,94,-28.95,153.24,287.278,1.77
Almaznyy,64,RU,1538258877,76,48.03,40.04,286.178,3.22
Fortuna,0,ES,1538256600,77,38.18,-1.13,293.15,1.12
Filadelfia,0,PY,1538258877,43,-22.35,-60.04,307.928,10.02
Harper,40,US,1538258100,73,30.3,-99.24,300.35,3.6
Moindou,0,NC,1538256600,60,-21.69,165.68,297.15,1.5
Husavik,0,CA,1538258234,85,50.56,-96.99,281.078,4.82
Terrak,92,NO,1538257800,81,65.09,12.37,282.15,6.2
Cascais,0,PT,1538256600,82,38.7,-9.42,292.15,6.7
Shadegan,0,IR,1538254800,51,30.65,48.67,302.15,2.52
Liwale,0,TZ,1538258878,55,-9.8,37.92,294.178,2.77
Shelburne,40,CA,1538254800,44,44.08,-80.2,289.15,6.2
Cockburn Town,56,TC,1538258320,97,21.46,-71.14,301.778,7.37
Payakumbuh,68,ID,1538258879,96,-0.23,100.63,294.078,1.02
Moranbah,0,AU,1538258243,85,-22.0,148.04,289.678,4.42
Les Cayes,32,HT,1538258552,93,18.19,-73.75,303.328,1.57
Luganville,92,VU,1538258798,100,-15.51,167.18,298.278,8.62
Bereda,0,ES,1538258400,93,43.27,-7.54,289.15,0.97
Port Blair,12,IN,1538258198,100,11.67,92.75,301.628,1.22
Panzhihua,92,CN,1538258879,100,26.59,101.72,288.178,0.97
Kahului,20,US,1538255640,72,20.89,-156.47,304.85,9.3
Saint-Pierre,0,FR,1538256600,70,48.95,4.24,281.15,3.1
Tutoia,0,BR,1538257500,65,-2.76,-42.27,300.15,6.2
Calamar,32,CO,1538258880,91,1.96,-72.65,299.278,1.62
Heihe,40,RU,1538256600,81,50.24,127.51,279.15,2.0
San Policarpo,24,PH,1538258880,100,12.18,125.51,298.678,1.62
Deputatskiy,76,RU,1538258509,81,69.3,139.9,267.428,1.22
Constitucion,90,MX,1538253720,53,23.99,-104.67,295.15,1.5
Ende,0,ID,1538258880,100,-8.84,121.65,299.278,1.17
Steamboat Springs,1,US,1538256900,3,40.48,-106.83,300.35,6.7
Chase,90,US,1538257200,59,43.89,-85.64,282.65,1.5
Samarai,68,PG,1538258881,100,-10.62,150.67,298.628,8.87
Mugur-Aksy,76,RU,1538258881,95,50.38,90.44,273.128,0.97
Grindavik,40,IS,1538254800,74,63.84,-22.43,277.15,7.7
Sandpoint,40,US,1538256900,35,48.28,-116.55,289.25,9.3
Kumher,0,IN,1538258881,76,27.32,77.38,295.178,1.22
Gimli,0,CA,1538258841,85,50.63,-96.99,281.078,4.82
Kuusamo,92,FI,1538257800,93,65.96,29.19,275.15,5.1
Vung Tau,40,VN,1538258400,94,10.35,107.08,299.15,0.97
Te Anau,92,NZ,1538258511,100,-45.41,167.72,277.928,1.62
Juan Aldama,75,MX,1538253600,55,24.94,-107.82,306.15,2.42
Starkville,75,US,1538258100,73,33.45,-88.82,300.35,1.77
Anito,32,PH,1538258252,100,12.45,125.29,300.428,4.77
Porosozero,8,RU,1538258882,100,62.72,32.71,274.678,3.32
Svetlogorsk,40,RU,1538256600,62,53.14,59.15,284.15,5.0
Kendari,56,ID,1538258882,87,-3.99,122.52,297.228,0.62
Dongsheng,0,CN,1538258197,83,29.72,112.52,287.678,1.22
Huadian,92,CN,1538258523,100,42.97,126.75,283.128,1.27
Bose,0,IT,1538256000,59,45.46,8.01,290.15,0.5
Dingle,88,PH,1538258203,99,11.0,122.67,297.178,1.77
Henties Bay,0,NA,1538258883,90,-22.12,14.28,288.028,2.52
Kharod,0,IN,1538258883,72,21.55,73.0,298.828,1.52
Victor Harbor,0,AU,1538256600,81,-35.55,138.62,282.15,5.1
Napasar,0,IN,1538258883,62,27.97,73.56,296.678,1.37
Jinchang,32,CN,1538258530,38,38.52,102.19,279.078,3.02
Porangatu,48,BR,1538258883,36,-13.44,-49.14,306.028,1.32
Maldonado,75,UY,1538254800,93,-34.91,-54.96,289.15,2.1
Tessalit,80,ML,1538258545,29,20.2,1.01,302.028,2.07
Colesberg,0,ZA,1538258884,52,-30.72,25.1,279.078,2.42
Samaro,0,PK,1538258884,69,25.28,69.4,298.178,3.37
Zhangye,36,CN,1538258884,42,38.94,100.46,277.528,3.27
Adamas,92,GR,1538256000,73,36.73,24.43,295.15,9.3
Lake Charles,90,US,1538258100,88,30.23,-93.22,298.85,2.57
Port Hedland,40,AU,1538256600,77,-20.31,118.58,293.15,4.6
Honningsvag,68,NO,1538258810,100,70.98,25.97,277.028,8.72
Salinas,1,US,1538256900,49,36.67,-121.66,296.15,7.7
Luan,0,CH,1538256000,76,46.36,6.98,286.15,0.5
Rey Bouba,0,CM,1538258885,91,8.67,14.18,296.678,1.17
Lucera,0,IT,1538258885,67,41.51,15.34,290.278,5.27
Yumen,80,CN,1538258221,32,40.29,97.04,282.878,3.07
Waddan,0,LY,1538258885,49,29.16,16.14,288.828,1.72
Posevnaya,8,RU,1538258885,62,54.3,83.33,280.028,4.82
